{
"accounts": [],
 "transactions": [{
    "account_id": "vokyE5Rn6vHKqDLRXEn5fne7LwbKPLIXGK98d",
    "amount": 2307.21,
    "category": [
      "Shops",
      "Computers and Electronics"
    ],
    "category_id": "19013000",
    "date": "2017-01-29",
    "location": {
     "address": "300 Post St",
     "city": "San Francisco",
     "state": "CA",
     "zip": "94108",
     "lat": null,
     "lon": null
    },
    "name": "Apple Store",
    "payment_meta": "",
    "pending": false,
    "pending_transaction_id": null,
    "account_owner": null,
    "transaction_id": "lPNjeW1nR6CDn5okmGQ6hEpMo4lLNoSrzqDje",
    "transaction_type": "place"
   }, {
    "account_id": "XA96y1wW3xS7wKyEdbRzFkpZov6x1ohxMXwep",
    "amount": 78.5,
    "category": [
      "Food and Drink",
      "Restaurants"
    ],
    "category_id": "13005000",
    "date": "2017-01-29",
    "location": {
      "address": "262 W 15th St",
      "city": "New York",
      "state": "NY",
      "zip": "10011",
      "lat": 40.740352,
      "lon": -74.001761
    },
    "name": "Golden Crepes",
    "payment_meta": "",
    "pending": false,
    "pending_transaction_id": null,
    "account_owner": null,
    "transaction_id": "4WPD9vV5A1cogJwyQ5kVFB3vPEmpXPS3qvjXQ",
    "transaction_type": "place"
  },
  {
    "account_id": "AA96y1wW3xS7wKyEdbRzFkpZov6x1ohxMXwep",
    "amount": 5.5,
    "category": [
      "Food and Drink",
      "Restaurants"
    ],
    "category_id": "13005000",
    "date": "2017-02-20",
    "location": {
      "address": "100 W 15th St",
      "city": "New York",
      "state": "NY",
      "zip": "10011",
      "lat": 40.740352,
      "lon": -74.001761
    },
    "name": "Mcdonalds",
    "payment_meta": "",
    "pending": false,
    "pending_transaction_id": null,
    "account_owner": null,
    "transaction_id": "1WPD9vV5A1cogJwyQ5kVFB3vPEmpXPS3qvjXQ",
    "transaction_type": "place"
  },
   {
    "account_id": "BA96y1wW3xS7wKyEdbRzFkpZov6x1ohxMXwep",
    "amount": 8.5,
    "category": [
      "Food and Drink",
      "Restaurants"
    ],
    "category_id": "13005000",
    "date": "2017-02-21",
    "location": {
      "address": "100 E 35th St",
      "city": "New York",
      "state": "NY",
      "zip": "10011",
      "lat": 40.740352,
      "lon": -74.001761
    },
    "name": "Starbucks",
    "payment_meta": "",
    "pending": false,
    "pending_transaction_id": null,
    "account_owner": null,
    "transaction_id": "2WPD9vV5A1cogJwyQ5kVFB3vPEmpXPS3qvjXQ",
    "transaction_type": "place"
  },
    {
    "account_id": "BA96y1wW3xS7wKyEdbRzFkpZov6x1ohxMXwep",
    "amount": 35.99,
    "category": [
      "Shops",
      "Books"
    ],
    "category_id": "19013000",
    "date": "2017-03-22",
    "location": {
      "address": "410 Terry Ave.North",
      "city": "Seattle",
      "state": "WA",
      "zip": "98109",
      "lat": 40.740352,
      "lon": -74.001761
    },
    "name": "Amazon",
    "payment_meta": "",
    "pending": false,
    "pending_transaction_id": null,
    "account_owner": null,
    "transaction_id": "2WPD9vV5A1cogJwyQ5kVFB3vPEmpXPS3qvjXQ",
    "transaction_type": "place"
  }

  ],
  "item": {},
  "total_transactions": "",
  "request_id": "45QSn"

}
